[
  {
    "id": "northbridge",
    "name": "Northbridge Baths, Sailors Bay",
    "suburb": "Northbridge",
    "lat": -33.80636176696457,
    "lng": 151.22191926469534,
    "stamp": "assets/compass.png"
  },
  {
    "id": "greenwich",
    "name": "Greenwich Baths, Greenwich",
    "suburb": "Greenwich",
    "lat": -33.841147628428715,
    "lng": 151.18295938891552,
    "stamp": "assets/map.png"
  },
  {
    "id": "woolwich",
    "name": "Woolwich Baths (Lane Cove River)",
    "suburb": "Woolwich",
    "lat": -33.839379,
    "lng": 151.16948,
    "stamp": "assets/anchor.png"
  },
  {
    "id": "barangaroo",
    "name": "Marrinawi Cove, Barangaroo",
    "suburb": "Barangaroo",
    "lat": -33.85538212709025,
    "lng": 151.20195305876618,
    "stamp": "assets/flag.png"
  },
  {
    "id": "cremorne-point",
    "name": "Maccallum Seawater Pool, Cremorne Point",
    "suburb": "Cremorne Point",
    "lat": -33.84529836233467,
    "lng": 151.22808678594717,
    "stamp": "assets/scroll.png"
  },

  {
    "id": "watsons-bay",
    "name": "Watsons Bay Baths, Watsons Bay",
    "suburb": "Watsons Bay",
    "lat": -33.845036171452385,
    "lng": 151.2814804824114,
    "stamp": "assets/pouch.png"
  }
]
